Flight Time (s),Latitude (deg),Longitude (deg),Altitude (km),Roll (deg),Pitch (deg),Yaw (deg),Omega (x) (Body),Omega (y) (Body),Omega (z) (Body),Velocity x (km/s)(J2000),Velocity y (km/s)(J2000),Velocity z (km/s)(J2000),Thrust (kN)(main engines),Mass (tonnes),Thrust to Effective Weight ratio,Mach Number,AoA (in pitch)(deg),AoS(yaw)(deg),AoA (total)(deg),Dynamic Pressure (Kpa),Acceleration with Gravity included (m/s^2)(J2000),Acceleration without gravity (m/s^2)(Body),Load_Factor_Axial,Velocity x (m/s)(J2000),Velocity y (m/s)(J2000),Velocity z (m/s)(J2000),T,P,rho,mu,Re,k,omega
0.0,-19.9581120504121,148.113603003304,0.0315641292249784,0,88.0,64.0,0.0,0.0,0.0,-0.238747438470651,-0.366423985592467,0.0005613144825331,469.040334114749,34.596754597217,1.38534999996662,0.0094667312785379,87.9999999117672,39.1485765699212,88.4491026543934,6.33270035243363,3.76303383300438,13.5572323843477,1.38110499529579,-238.747438470651,-366.42398559246703,0.5613144825331,287.944834178776,100946.39170427,1.22129142897801,1.788307554327143e-05,29867394.528153326,7.1725196875392765,12.513909740811076
0.0533232966283629,-19.9581120473679,148.11360300905,0.0315694801416248,0,88.0,64.0,-0.0013563494866869,-0.0035316083323639,0.0017708337873753,-0.238920158606365,-0.366338459257581,0.0005050714321628,469.035195732461,34.5851934486702,1.38579791579126,0.009541543678451,83.4504345781216,38.759248239693,84.8971295557865,6.43318216956839,3.76740032686212,13.5616138373416,1.38155134687341,-238.92015860636502,-366.338459257581,0.5050714321627999,287.944799398163,100946.327618184,1.22129080115658,1.7883073864570877e-05,29868925.71656126,,
0.106646593256726,-19.9581120382345,148.113603026289,0.0315855411980301,0,88.0,64.0,-0.0013574452454606,-0.003534500550311,0.0017721613834398,-0.239093068362243,-0.366252822105784,0.0004487519166054,469.030202963931,34.5736323314679,1.38624656497238,0.0096526252780199,79.0418725422295,38.2077775718277,81.4096504838676,6.58383033123996,3.77177197603184,13.5660014836032,1.38199833372672,-239.093068362243,-366.25282210578405,0.4487519166054,287.944695002334,100946.135260642,1.22128891671917,1.7883068825862793e-05,29870438.731991623,,
0.159969889885089,-19.9581120230103,148.113603055025,0.0316123248692602,0,88.0,64.0,-0.0013564963545876,-0.003532069032083,0.0017708194097612,-0.239266169798935,-0.366167071867401,0.0003923560149636,469.025355978091,34.5620712456101,1.38669594874946,0.0097988655508521,74.8170464439605,37.5143203544002,78.0099971359948,6.78481412149707,3.77614887459695,13.5703953306761,1.38244595667221,-239.266169798935,-366.167071867401,0.39235601496359995,287.944520910201,100945.81448283,1.22128577420656,1.7883060423231666e-05,29871933.509275947,,
0.213293186513452,-19.9581120016937,148.113603095263,0.0316498436471447,0,88.0,64.0,-0.0013565668295329,-0.0035322916917713,0.0017708083224753,-0.239439461788661,-0.366081208432405,0.0003358837765046,469.020654943648,34.5505101910967,1.38714606836298,0.0099788400881826,70.807359723552,36.702364638321,74.7178880996664,7.03630326741076,3.7805311136014,13.5747953861712,1.38289421652597,-239.439461788661,-366.081208432405,0.3358837765046,287.944277040572,100945.365136134,1.22128137216057,1.78830486527558e-05,29873409.987821728,,
0.266616483141815,-19.958111974283,148.113603147005,0.0316981100402772,0,88.0,64.0,-0.0013576687055205,-0.0035351998686432,0.0017721438344441,-0.239612943219263,-0.365995231758881,0.0002793352297721,469.016100029083,34.5389491679278,1.38759692505443,0.0101908810427069,67.0327967758519,35.7967010105169,71.5489944375663,7.33846792879302,3.78491877992402,13.5792016577554,1.38334311410367,-239.612943219263,-365.995231758881,0.2793352297721,287.943963312143,100944.78707214,1.22127570912403,1.7883033510506905e-05,29874868.111386932,,
0.319939779770178,-19.9581119407764,148.113603210255,0.0317571365823969,0,88.0,64.0,-0.0013567168627072,-0.0035327606960798,0.0017707979311734,-0.239786616240806,-0.365909139740792,0.0002227103918262,469.01169140276,34.5273881761034,1.38804852006664,0.0104331505188568,63.5029947575165,34.8216654535756,68.5148380282556,7.69147868507237,3.78931195546308,13.5836141531448,1.38379265022098,-239.78661624080598,-365.909139740792,0.2227103918262,287.943579643449,100944.080142533,1.22126878363988,1.7883014992547732e-05,29876307.827791937,,
0.37326307639854,-19.958111901172,148.113603285015,0.0318269358212128,0,88.0,64.0,-0.001357812735239,-0.0035356532656275,0.001772125551438,-0.239960478725008,-0.36582293313881,0.0001660092529322,469.007429232776,34.5158272156234,1.38850085464331,0.0107037107445072,60.2190056465163,33.7998203700507,65.622970729044,8.0955065201675,3.79371071661505,13.5880328800915,1.38424282569308,-239.96047872500802,-365.82293313880996,0.1660092529322,287.943125952935,100943.244199239,1.22126059425241,1.7882993094935496e-05,29877729.088645935,,
0.426586373026903,-19.9581118554679,148.113603371288,0.0319075203258544,0,88.0,64.0,-0.0013568639495262,-0.0035332220764044,0.0017707835834485,-0.24013453285753,-0.36573660994686,0.0001092317978689,469.003313687057,34.5042662864879,1.38895393002932,0.0110005865140238,57.1753075837818,32.7511160067083,62.8773586287376,8.55072280615573,3.79811513403312,13.5924578463792,1.38469364133503,-240.13453285753,-365.73660994686,0.1092317978689,287.942602158907,100942.27909433,1.22125113950647,1.7882967813719522e-05,29879131.849018227,,
0.479909669655266,-19.9581118036623,148.113603469076,0.0319989026803523,0,88.0,64.0,-0.0013569375047521,-0.0035334528159571,0.0017707763811985,-0.240308777628019,-0.365650170308688,5.23779905218311e-05,468.999344933272,34.4927053886968,1.38940774747046,0.0113218172530048,54.3617417810525,31.6924849142268,60.2788903132823,9.05729928648733,3.80252527260778,13.596889059815,1.3851450979615,-240.308777628019,-365.650170308688,0.0523779905218311,287.942008179574,100941.184680106,1.22124041794821,1.788293914494322e-05,29880516.067137554,,
0.533232966283629,-19.9581117457531,148.113603578381,0.032101095488295,0,88.0,64.0,-0.0013580334497058,-0.0035363456109223,0.0017721040085532,-0.240483212045398,-0.365563614407461,-4.55221725778279e-06,468.995523138889,34.4811445222502,1.38986230821364,0.0116654977405679,51.765187209724,30.6377750314026,57.825936530104,9.61540805928289,3.80694119162785,13.601326528226,1.38559719638702,-240.483212045398,-365.563614407461,-0.00455221725778279,287.94134393302,100939.960809045,1.22122842812454,1.78829070846428e-05,29881881.70407292,,
0.586556262911992,-19.9581116817382,148.113603699204,0.0322141113774851,0,88.0,64.0,-0.001357084672632,-0.0035339144828698,0.0017707619620511,-0.240657838348887,-0.365476940346268,-6.15588769384352e-05,468.991848471241,34.4695836871481,1.39031761350702,0.0120298078185004,49.3708981824329,29.597915403256,55.5149047238923,10.2252215611781,3.81136294506733,13.6057702594574,1.38604993742616,-240.657838348887,-365.476940346268,-0.061558876938435196,287.940609337173,100938.607333742,1.22121516858262,1.7882871628845705e-05,29883228.72343085,,
0.639879559540355,-19.9581116116158,148.113603831548,0.0323379629822448,0,88.0,64.0,-0.0013571582828348,-0.0035341454043764,0.0017707547407001,-0.240832655578433,-0.365390148370923,-0.0001186420566549,468.988321097282,34.4580228833905,1.39077366459934,0.0124130322552133,47.1635053275975,28.5812193164688,53.3407501230406,10.8869125520501,3.81579058194441,13.6102202613624,1.38650332189285,-240.832655578433,-365.390148370923,-0.1186420566549,287.939804309917,100937.124107127,1.22120063787193,1.7882832773576053e-05,29884557.091122508,,
0.693202856168718,-19.9581115353836,148.113603975414,0.0324726629657671,0,88.0,64.0,-0.0013582542297831,-0.0035370382444919,0.0017720822772493,-0.241007662788249,-0.365303238755632,-0.0001758018327645,468.984941183889,34.4464621109773,1.39123046274081,0.0128135723605193,45.1277210880049,27.5937505153772,51.2974216368346,11.6006541007298,3.82022414674007,13.614676541808,1.38695735060133,-241.007662788249,-365.303238755632,-0.1758018327645,287.938928768951,100935.510982198,1.22118483454167,1.7882790514847798e-05,29885866.775059976,,
0.746526152797081,-19.9581114530396,148.113604130803,0.0326182240070775,0,88.0,64.0,-0.0013573055119823,-0.0035346073104163,0.0017707402138355,-0.241182862255696,-0.365216209679901,-0.0002330382815455,468.981708897683,34.4349013699086,1.39168800918254,0.0132299510616879,43.2488063783076,26.6397006642826,49.3782338983644,12.366619571892,3.82466367981832,13.6191391086686,1.38741202436559,-241.182862255696,-365.216209679901,-0.2330382815455,287.93798263187,100933.767812178,1.22116775714228,1.7882744848668684e-05,29887157.744957898,,
0.799849449425444,-19.9581113645816,148.113604297716,0.0327746588010341,0,88.0,64.0,-0.0013573791382514,-0.00353483831465,0.0017707329183925,-0.241358253056918,-0.365129061461344,-0.0002903514929208,468.978624405029,34.4233406601843,1.39214630517661,0.0136608130592524,41.5128554202603,25.7217457855127,47.5761659101104,13.1849826140876,3.82910921784654,13.6236079698239,1.38786734399944,-241.358253056918,-365.129061461344,-0.2903514929208,287.93696581617,100931.894450518,1.22114940422549,1.7882695771040404e-05,29888429.97212913,,
0.853172746053807,-19.9581112700076,148.113604476155,0.0329419800648466,0,88.0,64.0,-0.0013584751197971,-0.0035377312847704,0.0017720604034842,-0.241533834278347,-0.36504179443778,-0.0003477415623817,468.975687872117,34.4117799818045,1.39260535197626,0.0141049214755483,39.9069486988046,24.8413643543744,45.8840923314772,14.0559171489007,3.83356079419932,13.6280831331602,1.38832331031676,-241.533834278347,-365.04179443778,-0.3477415623817,287.935878239198,100929.890750817,1.22112977434353,1.788264327795626e-05,29889683.429285713,,
0.90649604268217,-19.9581111693155,148.11360466612,0.0331202005287632,0,88.0,64.0,-0.001357526413341,-0.0035353004215364,0.0017707182584107,-0.241709608223795,-0.364954406840342,-0.0004052085830225,468.972899464842,34.4002193347692,1.39306515083554,0.0145611521587009,38.4192143354753,23.9991100876234,44.2949562740581,14.9795973611877,3.83801843932889,13.6325646065661,1.38877992413113,-241.70960822379502,-364.954406840342,-0.4052085830225,287.934719818222,100927.75656694,1.22110886605026,1.7882587365404482e-05,29890918.090398543,,
0.959819339310532,-19.958111062503,148.113604867613,0.0333093329453841,0,88.0,64.0,-0.0013576000400444,-0.0035355314680419,0.0017707108657868,-0.241885573995011,-0.364866899036386,-0.0004627526595497,468.970259348922,34.3886587190783,1.3935257030097,0.0150284865543479,37.0388286296024,23.1948390043916,42.8018933770365,15.9561976902862,3.84248218111099,13.6370523979351,1.38923718625626,-241.88557399501101,-364.86689903638603,-0.46275265954969996,287.933490470361,100925.491752905,1.22108667790007,1.7882528029364874e-05,29892133.930532273,,
1.0131426359389,-19.958110949568,148.113605080634,0.0335093900868669,0,88.0,64.0,-0.0013586960686473,-0.0035384246027548,0.0017720383150842,-0.242061730701203,-0.364779271407779,-0.0005203739004761,468.967767689863,34.3770981347319,1.39398700975504,0.0155060038315977,35.7559782722877,22.4278940502793,41.3983166401396,16.985892822149,3.8469520451527,13.6415465151638,1.38969509750584,-242.06173070120298,-364.779271407779,-0.5203739004761,287.93219011261,100923.096162919,1.22106320844823,1.7882465265810002e-05,29893330.925725713,,
1.06646593256726,-19.9581108305084,148.113605305183,0.0337203847356141,0,88.0,64.0,-0.0013577473585926,-0.0035359937719786,0.0017706960671723,-0.242238080664309,-0.36469152221994,-0.0005780724103916,468.965424652826,34.36553758173,1.39444907232855,0.015992872759508,34.5618001470199,21.6972523556858,40.0779705403974,18.0688576822905,3.85142805506459,13.6460469661482,1.39015365869319,-242.238080664309,-364.69152221994,-0.5780724103916001,287.930818661898,100920.569651489,1.221038456252,1.7882399070708004e-05,29894509.052903082,,
1.11978922919562,-19.958110705322,148.113605541262,0.0339423297056928,0,88.0,64.0,-0.0013588433770282,-0.0035388869071489,0.0017720234368139,-0.242414621935911,-0.364603652585091,-0.0006358483065946,468.96323040292,34.3539770600725,1.39491189198876,0.0164883436778498,33.4483096228181,21.0016407587179,38.8349617259785,19.2052674294075,3.85591023271374,13.6505537587911,1.39061287063213,-242.41462193591101,-364.60365258509097,-0.6358483065946,287.929376034948,100917.912073171,1.22101241986812,1.788232944001581e-05,29895668.28972703,,
1.17311252582398,-19.9581105740066,148.113605788871,0.0341752378158271,0,88.0,64.0,-0.0013578946851501,-0.0035364561514264,0.0017706811468132,-0.242591356846664,-0.364515660784767,-0.000693701699322,468.961185104831,34.3424165697595,1.39537546999466,0.0169917407882182,32.4083245769736,20.339625072503,37.6637722999709,20.3952974497181,3.86039859842851,13.6550669009917,1.3910727341359,-242.59135684666398,-364.51566078476696,-0.693701699322,287.927862148454,100915.123282894,1.22098509785599,1.7882256369687682e-05,29896808.61457654,,
1.22643582245235,-19.9581104365602,148.11360604801,0.0344191219145432,0,88.0,64.0,-0.0013579683634766,-0.0035366874016813,0.0017706736572068,-0.242768284525763,-0.364427547237948,-0.000751632708469,468.959288923164,34.330856110791,1.39583980760669,0.0175024549037863,31.4353897727688,19.7096780597527,36.5592605119027,21.6391233517774,3.86489317119749,13.6595864006548,1.39153325001817,-242.768284525763,-364.42754723794803,-0.751632708469,287.926276918919,100912.203135656,1.22095648877475,1.7882179855667403e-05,29897930.00641398,,
1.27975911908071,-19.9581102929804,148.113606318679,0.0346739948606119,0,88.0,64.0,-0.0013590643721118,-0.0035395805530046,0.0017720009153122,-0.242945404107181,-0.364339312372323,-0.0008096414560489,468.957542022172,34.3192956831669,1.39630490608597,0.0180199367324256,30.5237044025346,19.1102304096874,35.5166526275455,22.9369209618466,3.86939396882704,13.6641122656833,1.39199441909229,-242.945404107181,-364.339312372323,-0.8096414560488999,287.924620262776,100909.151486766,1.22092659118555,1.7882099893894113e-05,29899032.444765475,,
1.33308241570907,-19.9581101432653,148.11360660088,0.0349398695332929,0,88.0,64.0,-0.0013581157188507,-0.0035371499403633,0.0017706585779226,-0.243122717931147,-0.364250954486451,-0.0008677280586968,468.955944565897,34.3077352868873,1.39677076669471,0.0185436907234348,29.6680543739912,18.5397083210621,34.5315288688306,24.2888663196558,3.87390100808963,13.6686445039816,1.39245624217163,-243.122717931147,-364.250954486451,-0.8677280586968,287.922892096329,100905.968191719,1.22089540365039,1.7882016480299428e-05,29900115.909639798,,
1.38640571233744,-19.9581099874125,148.113606894612,0.0352167588379234,0,88.0,64.0,-0.0013581893854506,-0.0035373812003721,0.0017706509733747,-0.243300225137731,-0.364162474018644,-0.0009258926420455,468.954496718242,34.2961749219522,1.39723739069641,0.0190732694779184,28.8637501002188,17.9965606479484,33.599805600329,25.6951356745234,3.87841430485185,13.6731831234582,1.39291872006988,-243.300225137731,-364.162474018644,-0.9258926420455,287.921092335712,100902.653106133,1.22086292473149,1.7881929610805492e-05,29901180.38146608,,
1.4397290089658,-19.95810982542,148.113607199876,0.0355046756854281,0,88.0,64.0,-0.0013592853904981,-0.0035402743856562,0.0017719781297701,-0.24347792487074,-0.364073871413959,-0.0009841353332752,468.953198642692,34.2846145883615,1.39770477935503,0.0196082687033816,28.1065700267215,17.4792779937388,32.7177153706133,27.155905481879,3.88293387417571,13.677728132017,1.39338185360021,-243.47792487074,-364.073871413959,-0.9841353332752001,287.919220897024,100899.206085994,1.22082915299365,1.7881839281331472e-05,29902225.84109602,,
1.49305230559416,-19.9581096572857,148.113607516671,0.0358036330118775,0,88.0,64.0,-0.0013583367528447,-0.0035378438540994,0.00177063571347,-0.243655819477026,-0.3639851449819,-0.0010424562536956,468.952050502576,34.2730542861153,1.39817293393581,0.0201483226812564,27.3927098013131,16.9864056530406,31.8817859736085,28.6713523999502,3.88745973042192,13.6822795375652,1.39384564357601,-243.655819477026,-363.98514498189996,-1.0424562536956001,287.9172776962,100895.626987425,1.22079408700203,1.7881745487787316e-05,29903252.269721396,,
1.54637560222252,-19.9581094830073,148.113607844997,0.0361136437747627,0,88.0,64.0,-0.0013584104142417,-0.0035380751422615,0.0017706280046386,-0.243833908104891,-0.363896295174814,-0.0011008555331723,468.951052461016,34.2614940152136,1.39864185570507,0.0206931002096426,26.7187367999411,16.5165518986473,31.0888193552988,30.2416532867693,3.89199188733138,13.6868373480118,1.39431009081082,-243.833908104891,-363.896295174814,-1.1008555331723,287.915262649039,100891.915666731,1.22075772532257,1.788164822607512e-05,29904259.648847256,,
1.59969889885089,-19.9581093025827,148.113608184856,0.0364347209418192,0,88.0,64.0,-0.0013595064526181,-0.0035409684562101,0.0017719551072319,-0.244012189905645,-0.363807322450488,-0.0011593333027374,468.950204680774,34.2499337756563,1.3991115459298,0.0212423009808002,26.0815496181313,16.0683927833774,30.3358709340448,31.8669851973926,3.89653035809327,13.6914015712628,1.39477519611782,-244.012189905645,-363.807322450488,-1.1593333027374,287.913175671271,100888.071980534,1.2207200665233,1.7881547492092353e-05,29905247.96028877,,
1.65302219547925,-19.9581091160099,148.113608536246,0.0367668775087222,0,88.0,64.0,-0.001358557777868,-0.0035385378683801,0.0017706125443918,-0.244190667230822,-0.363718225125176,-0.0012178896872228,468.949507324489,34.2383735674435,1.39958200587833,0.0217956523527028,25.4783420925445,15.6406743640402,29.6202297110807,33.54752538124,3.90107515541518,13.6959722152282,1.39524096031054,-244.190667230822,-363.718225125176,-1.2178896872228,287.911016678448,100884.095785568,1.22068110917232,1.788144328172656e-05,29906217.186103266,,
1.70634549210761,-19.9581089232866,148.113608899167,0.0371101264832541,0,88.0,64.0,-0.0013586314798874,-0.0035387693050847,0.0017706047924401,-0.244369339235065,-0.363629003661713,-0.0012765248197166,468.948960554459,34.2268133905751,1.40005323681971,0.0223529064752264,24.9065714085452,15.2322130464574,28.9393994066551,35.2834512796747,3.90562629157202,13.7005492878161,1.39570738420228,-244.36933923506498,-363.629003661713,-1.2765248197166,287.908785586043,100879.98693886,1.2206408518396,1.7881335590860203e-05,29907167.308602642,,
1.75966878873598,-19.9581087244108,148.11360927362,0.0374644808936864,0,88.0,64.0,-0.0013597274798087,-0.0035416625580818,0.0017719317468455,-0.24454820507573,-0.363539658527325,-0.0013352388342134,468.948564532756,34.2152532450513,1.40052524002404,0.022913837733847,24.3639298632748,14.8418945865221,28.2910807548756,37.074940523645,3.9101837784576,13.7051327969355,1.39617446860638,-244.54820507573,-363.539658527325,-1.3352388342134,287.906482309396,100875.745297643,1.2205992930961,1.7881224415367962e-05,29908098.31031531,,
1.81299208536434,-19.9581085193803,148.113609659605,0.037829953786917,0,88.0,64.0,-0.0013587788345887,-0.003539232088403,0.0017705891268797,-0.244727267107476,-0.363450188042273,-0.0013940318582837,468.9483194212,34.2036931308718,1.40099801676239,0.023478240476475,23.8483198801059,14.468672154219,27.6731550174481,38.9221709315016,3.91474762762615,13.7097227504955,1.39664221433619,-244.727267107476,-363.450188042273,-1.3940318582837,287.904106763728,100871.37071937,1.22055643151392,1.7881109751117483e-05,29909010.17396955,,
1.8663153819927,-19.9581083081931,148.11361005712,0.0382065582275391,0,88.0,64.0,-0.0013598748631382,-0.0035421254439093,0.0017719160550362,-0.24490652342548,-0.363360593394884,-0.0014529040299664,468.948225381336,34.1921330480369,1.40147156830676,0.0240459269920191,23.3578319028344,14.1115637679324,27.0836687253403,40.8253205068762,3.91931785032886,13.7143191564053,1.39711062220499,-244.90652342548,-363.360593394884,-1.4529040299664,287.901658864145,100866.863061734,1.22051226566646,1.7880991593969514e-05,29909902.882480793,,
1.91963867862106,-19.958108090847,148.113610466166,0.0385943073024973,0,88.0,64.0,-0.0013589261966424,-0.0035396949461127,0.0017705733438185,-0.245085976386014,-0.363270872906871,-0.0015118554783449,468.948282574507,34.1805729965464,1.40194589593026,0.0246167257123257,22.8907248331535,13.7696493294374,26.5208196229058,42.784567436665,3.92389445754843,13.7189220225755,1.39757969302621,-245.085976386014,-363.270872906871,-1.5118554783449,287.899138525608,100862.22218261,1.2204667941279,1.788086993977649e-05,29910776.41892571,,
1.97296197524943,-19.9581078673399,148.113610886743,0.0389932141089812,0,88.0,64.0,-0.0013589998657439,-0.0035399263644435,0.0017705653897535,-0.245265625151898,-0.363181027053231,-0.0015708863404465,468.948491161678,34.1690129764004,1.40242100090661,0.0251904796119954,22.4454087097308,13.4420674307002,25.9829437662137,44.8000900891238,3.9284774600227,13.7235313569136,1.39804942761294,-245.265625151898,-363.18102705323105,-1.5708863404465,287.896545663013,100857.4479402,1.22042001547458,1.788074478438635e-05,29911630.766557027,,
2.02628527187779,-19.9581076376699,148.11361131885,0.0394032917739823,0,88.0,64.0,-0.0013600989253304,-0.0035428276516489,0.0017718961803815,-0.24544546888492,-0.363091056314572,-0.0016299967539424,468.948851303706,34.1574529875988,1.40289688451097,0.025767044783378,22.0204293605873,13.1280120581749,25.4685037134078,46.8720670119296,3.93306686827773,13.7281471673317,1.39851982677869,-245.44546888492,-363.09105631457203,-1.6299967539423998,287.893880191063,100852.540192808,1.22037192828279,1.7880616123636395e-05,29912465.908746883,,
2.07960856850615,-19.9581074018347,148.113611762487,0.039824553434737,0,88.0,64.0,-0.0013591442060486,-0.0035403814334624,0.0017705454718248,-0.245625509952516,-0.363000959007181,-0.0016891868498202,468.949363161068,34.1458930301418,1.40337354801907,0.0263462891665096,21.6144547913979,12.8267292856275,24.9760777371746,49.0006769304293,3.93766269264224,13.7327694617386,1.39899089133663,-245.625509952516,-363.000959007181,-1.6891868498202,287.891142024396,100847.498799067,1.220322531131,1.788048395335943e-05,29913281.829020943,,
2.13293186513452,-19.9581071598324,148.113612217653,0.0402570122489706,0,88.0,64.0,-0.0013592208945378,-0.0035406207536371,0.001770541366162,-0.245805747511931,-0.362910735617703,-0.001748456766935,468.950026894004,34.1343331040291,1.40385099270769,0.0269280914161335,21.226263100595,12.5375140201853,24.5043499861374,51.1860987458536,3.94226494327128,13.7373982480437,1.39946262209996,-245.805747511931,-362.910735617703,-1.748456766935,287.888331077515,100842.323617824,1.22027182259875,1.7880348269380384e-05,29914078.511026733,,
2.18625516176288,-19.9581069116608,148.113612684348,0.0407006813930348,0,88.0,64.0,-0.0013603169334829,-0.0035435142155787,0.0017718681198859,-0.245986180734922,-0.362820386627402,-0.0018078066446478,468.950842662482,34.122773209261,1.40432921985453,0.027512339889955,20.8547317374459,12.2597068463519,24.0521015216368,53.4285115335806,3.94687363016299,13.7420335341565,1.39993501988188,-245.98618073492202,-362.820386627402,-1.8078066446477998,287.885447264806,100837.01450816,1.2202198012668,1.7880209067517196e-05,29914855.938527517,,
2.23957845839124,-19.958106657318,148.113613162571,0.0411555740665644,0,88.0,64.0,-0.0013593682270575,-0.003541083693009,0.0017705251692245,-0.24616681198066,-0.36272991035873,-0.0018672366155858,468.951810626265,34.1112133458373,1.40480823073844,0.028098931744199,20.4988279419627,11.9926909978075,23.6182021582314,55.7280945414405,3.95148876317583,13.7466753279883,1.40040808549575,-246.16681198066001,-362.72991035872997,-1.8672366155858,287.882490500503,100831.571329341,1.22016646571667,1.7880066343579097e-05,29915614.095385477,,
2.29290175501961,-19.9581063968019,148.113613652322,0.0416217034840956,0,88.0,64.0,-0.0013594419137094,-0.0035413152359821,0.0017705170516516,-0.246347640419136,-0.362639307296244,-0.0019267468201128,468.952930944797,34.0996535137581,1.40528802663903,0.0286877721241479,20.1576002254506,11.7358894756116,23.2016030392979,58.0850271880968,3.956110352039,13.7513236374487,1.40088181975474,-246.347640419136,-362.639307296244,-1.9267468201128,287.879460698743,100825.993940913,1.22011181453158,1.7879920093369264e-05,29916352.965573516,,
2.34622505164797,-19.9581061301105,148.113614153601,0.0420990828769282,0,88.0,64.0,-0.0013605409496881,-0.0035442165411151,0.0017718476267271,-0.246528665219096,-0.36254857792942,-0.0019863373990598,468.954203777217,34.0880937130233,1.40576860883679,0.0292787734388335,19.8301707681259,11.4887623231762,22.8013298830434,60.499489061403,3.96073840636536,13.7559784704466,1.40135622347193,-246.528665219096,-362.54857792942005,-1.9863373990598,287.876357773556,100820.282202689,1.2200558462963,1.787977031268433e-05,29917072.53316571,,
2.39954834827633,-19.9581058572417,148.113614666406,0.0425877254987136,0,88.0,64.0,-0.0013595862148918,-0.0035417703611772,0.0017704967142369,-0.246709888749807,-0.362457720573306,-0.0020460084864268,468.955629282445,34.076533943633,1.40624997861327,0.0298718547103516,19.5157286256739,11.2508040623289,22.4164768385651,62.9716599167882,3.96537293566454,13.7606398348921,1.40183129746051,-246.70988874980702,-362.457720573306,-2.0460084864268,287.873181638828,100814.435974676,1.21999855959644,1.7879616997312633e-05,29917772.782317005,,
2.45287164490469,-19.9581055781936,148.113615190738,0.0430876446180046,0,88.0,64.0,-0.0013596628874108,-0.00354200971727,0.0017704924043718,-0.246891310174885,-0.362366735722336,-0.002105760223927,468.957207619069,34.0649742055872,1.40673213725078,0.0304669409893709,19.2135236501159,11.0215412904379,22.0462008961002,65.5017196756903,3.97001394934972,13.7653077386938,1.40230704253348,-246.891310174885,-362.36673572233605,-2.105760223927,287.869932208348,100808.455117174,1.21993995301938,1.7879460143036388e-05,29918453.69727704,,
2.50619494153306,-19.9581052929642,148.113615726594,0.0435988535294309,0,88.0,64.0,-0.0013607588984259,-0.0035449031844246,0.0017718189396859,-0.247072928672215,-0.362275623865048,-0.0021655927536498,468.958938945502,34.0534144988858,1.40721508603288,0.0310639628294699,18.9228610421504,10.8005304354781,21.6897168000884,68.089848423931,3.97466145675074,13.7699821897626,1.40278345950413,-247.072928672215,-362.27562386504803,-2.1655927536498,287.866609395737,100802.339490638,1.21988002515299,1.7879299745628356e-05,29919115.262359142,,
2.55951823816142,-19.9581050015514,148.113616273976,0.0441213655387983,0,88.0,64.0,-0.001359810192356,-0.0035424727402644,0.0017704758087653,-0.247254746602062,-0.362184383321233,-0.0022255062108454,468.960823419771,34.0418548235289,1.40769882624371,0.0316628558137564,18.6430964624261,10.5873556638204,21.3462924180441,70.7362264102445,3.97931546711595,13.7746631960068,1.40326054918536,-247.254746602062,-362.184383321233,-2.2255062108454,287.863213114543,100796.088955858,1.21981877458733,1.7879135800856362e-05,29919757.461970456,,
2.61284153478978,-19.9581047039533,148.113616832881,0.0446551939733326,0,88.0,64.0,-0.0013609092296897,-0.0035453741131558,0.0017718062367374,-0.247436762076016,-0.362093015309051,-0.0022855007408012,468.962861199662,34.0302951795165,1.40818335916846,0.0322635601280484,18.3736316381415,10.3816269341264,21.0152445223652,73.4410340446813,3.98397598962327,13.779350765335,1.40373831239019,-247.436762076016,-362.093015309051,-2.2855007408012002,287.859743278177,100789.703373844,1.21975619991353,1.7878968304480218e-05,29920380.280584943,,
2.66616483141815,-19.958104400168,148.11361740331,0.0452003521816805,0,88.0,64.0,-0.0013599574809867,-0.0035429357716123,0.001770459074188,-0.247618977460775,-0.362001518142617,-0.0023455764795008,468.96505244271,34.0187355668485,1.40866868609331,0.0328660201755296,18.1139104091862,10.182978189876,20.6959349461141,76.20445189705,3.9886430333865,13.7840449056568,1.40421674993167,-247.618977460775,-362.001518142617,-2.3455764795008,287.856199799912,100783.182605821,1.21969229972373,1.7878797252251667e-05,29920983.702738795,,
2.71948812804651,-19.9581040901934,148.11361798526,0.0457568535292521,0,88.0,64.0,-0.001360028104422,-0.0035431594400411,0.0017704467186906,-0.247801391933748,-0.361909892314661,-0.002405733570533,468.96739730614,34.007175985525,1.40915480830529,0.03347018422842,17.8634151648665,9.99106568261779,20.3877670774665,79.0266606954325,3.99331660745907,13.7887456248808,1.40469586262275,-247.801391933748,-361.90989231466096,-2.405733570533,287.85258259291,100776.526513289,1.21962707261171,1.7878622639915687e-05,29921567.713039815,,
2.77281142467487,-19.9581037740276,148.113618578732,0.0463247113982215,0,88.0,64.0,-0.0013611271083961,-0.0035460607640816,0.0017717770156444,-0.247984004667737,-0.361818138324592,-0.0024659721578421,468.969895946862,33.995616435546,1.40964172709224,0.0340760041127023,17.6216636281142,9.80556641783484,20.0901826607936,81.9078413246587,3.9979967208391,13.7934529309143,1.40517565127624,-247.98400466773703,-361.818138324592,-2.4659721578421,287.848891570229,100769.734958026,1.21956051717286,1.787844446321082e-05,29922132.296163123,,
2.82613472130323,-19.9581034516688,148.113619183725,0.0469039391931146,0,88.0,64.0,-0.0013601783805482,-0.0035436303244979,0.0017704337102496,-0.248166818026307,-0.361726254486306,-0.0025262923784565,468.972548521546,33.9840569169114,1.41012944374304,0.0346834349224163,17.3882059493307,9.62617671539737,19.8026588755039,84.848174824738,4.00268338247628,13.7981668316657,1.40565611670503,-248.166818026307,-361.726254486306,-2.5262923784565,287.845126644779,100762.807802022,1.21949263200355,1.787826271786704e-05,29922677.43683626,,
2.8794580179316,-19.9581031231149,148.113619800237,0.047494550338015,0,88.0,64.0,-0.001360252013403,-0.0035438618668143,0.0017704251984371,-0.248349831189283,-0.361634241294848,-0.0025866943769674,468.975355186581,33.9724974296213,1.41061795954751,0.0352924347604217,17.1626220764503,9.4526108767279,19.5247056664872,87.8478423893652,4.00737660127489,13.8028873350434,1.40613725972204,-248.349831189283,-361.634241294848,-2.5866943769674,287.841287729345,100755.744907513,1.21942341570147,1.787807739960686e-05,29923203.119843118,,
2.93278131455996,-19.9581027883641,148.113620428268,0.0480965582719073,0,88.0,64.0,-0.0013613509928939,-0.0035467631624498,0.0017717553769943,-0.248533043334974,-0.361542099249705,-0.0026471782982884,468.978316098012,33.9609379736757,1.41110727579618,0.0359029645028896,16.9445193718026,9.28459995111839,19.2558633026135,90.9070253644376,4.01207638609562,13.8076144489537,1.40661908113992,-248.533043334974,-361.54209924970496,-2.6471782982884,287.837374736618,100748.546137038,1.2193528668662,1.7877888504146808e-05,29923709.330032665,,
2.98610461118832,-19.9581024474144,148.113621067816,0.0487099764598534,0,88.0,64.0,-0.0013603962290326,-0.0035443170444721,0.0017704041063399,-0.248716456833057,-0.361449826657799,-0.0027077442803906,468.981431411686,33.9493785490745,1.41159739378078,0.0365149875851003,16.7335304497289,9.12189059396244,18.9957001419767,94.0259052464409,4.01678274576351,13.8123481813055,1.40710158177159,-248.71645683305698,-361.449826657799,-2.7077442803906,287.833387579116,100741.211353312,1.21928098409788,1.7877696027193656e-05,29924196.05229057,,
3.03942790781669,-19.958102100264,148.113621718881,0.0493348183743656,0,88.0,64.0,-0.0013604728406606,-0.0035445563784306,0.0017703993987074,-0.248900070856286,-0.361357424022647,-0.0027683924688154,468.984701283002,33.9378191558178,1.41208831479345,0.0371284698063687,16.529311212008,8.96424401009651,18.7438105847569,97.2046636810928,4.02149568906357,13.8170885400026,1.40758476242945,-248.900070856286,-361.35742402264697,-2.7683924688154,287.829326169314,100733.740419443,1.21920776599944,1.7877499964450626e-05,29924663.271581277,,
3.09275120444505,-19.958101746911,148.113622381462,0.0499710975186899,0,88.0,64.0,-0.0013615687879017,-0.0035474498163344,0.0017717255355787,-0.249083884591436,-0.361264891841438,-0.0028291230093702,468.988125867221,33.9262597939055,1.41258004012769,0.0377433791522111,16.3315390606501,8.81143497578867,18.4998131963132,100.443482461624,4.02621522475284,13.8218355329531,1.40806862392631,-249.08388459143598,-361.264891841438,-2.8291230093702002,287.825190419485,100726.133198661,1.21913321117389,1.7877300311609746e-05,29925110.972892188,,
3.14607450107341,-19.9581013873535,148.113623055557,0.0506188274128363,0,88.0,64.0,-0.0013606200362148,-0.0035450193871298,0.0017703820303912,-0.249267900398577,-0.36117222842461,-0.0028899360409419,468.991705319277,33.9147004633377,1.41307257107782,0.0383596856320031,16.1399112700673,8.66325093340586,18.2633489849731,103.742543527359,4.03094136155746,13.8265891680638,1.40855316707484,-249.26790039857698,-361.17222842461,-2.8899360409419,287.820980241796,100718.389554486,1.21905731822592,1.787709706435649e-05,29925539.141263243,,
3.19939779770178,-19.9581010215897,148.113623741166,0.0512780215861276,0,88.0,64.0,-0.0013606936438953,-0.0035452509354594,0.0017703733185618,-0.249452117461975,-0.361079434271107,-0.0029508317099214,468.995439793673,33.9031411641144,1.4135659089386,0.0389773611306377,15.9541435025488,8.51949115313218,18.0340798203889,107.102028962278,4.03567410817186,13.831349453237,1.40903839268724,-249.45211746197498,-361.079434271107,-2.9508317099214,287.816695548352,100710.509350815,1.21898008576285,1.787689021837185e-05,29925947.76180545,,
3.25272109433014,-19.9581006496177,148.113624438286,0.0519486935995519,0,88.0,64.0,-0.0013617925766584,-0.0035481521825283,0.0017717032710826,-0.249636534964347,-0.360986509884187,-0.0030118101629842,468.99932944478,33.8915818962356,1.4140600550062,0.0395963792728246,15.7739684528059,8.37996595655429,17.8116869797713,110.522120993263,4.0404134732699,13.8361163963795,1.40952430157619,-249.63653496434702,-360.986509884187,-3.0118101629842,287.812336251055,100702.492451661,1.21890151239199,1.787667976932557e-05,29926336.819645192,,
3.3060443909585,-19.9581002714358,148.113625146918,0.0526308570280671,0,88.0,64.0,-0.0013608377665525,-0.0035457060135579,0.0017703517749044,-0.249821155274793,-0.360893453564706,-0.0030728715398408,469.0033744266,33.8800226597012,1.41455501057746,0.0402167152987952,15.5991346088851,8.24449599728146,17.5958698105076,114.003001988733,4.04515946549974,13.8408900053959,1.41001089455408,-249.821155274793,-360.89345356470596,-3.0728715398408,287.807902261716,100694.338721365,1.2188215967227,1.7876465712881544e-05,29926706.299964607,,
3.35936768758686,-19.9580998870419,148.113625867059,0.0533245254652575,0,88.0,64.0,-0.0013619367049455,-0.0035486072992561,0.0017716816814591,-0.25000597651311,-0.360800266552299,-0.0031340159901303,469.007574892823,33.8684634545113,1.41505077695005,0.0408383459503501,15.429405118161,8.11291159416192,17.3863444988216,117.544854457053,4.04991209348738,13.8456702881895,1.4104981724332,-250.00597651311003,-360.80026655229904,-3.1340159901303,287.803393492028,100686.048024541,1.21874033736593,1.787624804469645e-05,29927056.18799098,,
3.41269098421523,-19.9580994964345,148.113626598709,0.0540297125233337,0,88.0,64.0,-0.0013609879095808,-0.0035461768143961,0.0017703379848516,-0.25019100104192,-0.360706947149957,-0.0031952436541177,469.011930996827,33.8569042806658,1.41554735542249,0.0414612493662745,15.2645567483058,7.98505211297174,17.1828429350932,121.147861045,4.05467136583834,13.8504572526634,1.41098613602578,-250.19100104192,-360.706947149957,-3.1952436541177,287.79880985356,100677.620226077,1.21865773293418,1.7876026760419533e-05,29927386.468994755,,
3.46601428084359,-19.9580990996116,148.113627341866,0.0547464318368584,0,88.0,64.0,-0.0013610614728875,-0.0035464083048098,0.0017703290811955,-0.250376228048937,-0.360613495859365,-0.0032565546795469,469.016442891726,33.8453451381648,1.4160447472943,0.0420854049862442,15.1043789342165,7.86076539278892,16.9851116673667,124.81220453615,4.05943729114058,13.8552509067209,1.4114747861441,-250.376228048937,-360.613495859365,-3.2565546795469,287.79415125774,100669.055191096,1.21857378204106,1.7875801855691733e-05,29927697.1282792,,
3.51933757747195,-19.9580986965715,148.113628096528,0.0554746970571578,0,88.0,64.0,-0.0013621603896093,-0.0035493095678759,0.0017716588810038,-0.250561656720275,-0.36051991318649,-0.0033179492144258,469.02111073029,33.8337860270083,1.41654295386576,0.0427107934624469,14.9486729028475,7.73990721356958,16.7929109354014,128.538067849389,4.06420987796364,13.8600512582641,1.41196412360026,-250.56165672027498,-360.51991318649004,-3.3179492144258003,287.789417615886,100660.352785021,1.21848848330204,1.787557332614718e-05,29927988.151194733,,
3.57266087410032,-19.9580982873124,148.113628862696,0.0562145218569785,0,88.0,64.0,-0.001361208556487,-0.0035468712078461,0.001770311140046,-0.250747289421218,-0.360426197428806,-0.0033794273997943,469.025934665012,33.8222269471963,1.41704197643807,0.0433373965782205,14.7972508687038,7.6223408017046,16.6060137783044,132.32563403729,4.06898913486172,13.8648583151952,1.41245414920639,-250.747289421218,-360.426197428806,-3.3794273997943,287.784608839178,100651.512873522,1.21840183533382,1.7875341167411854e-05,29928259.523124784,,
3.62598417072868,-19.9580978718325,148.113629640366,0.0569659199239686,0,88.0,64.0,-0.0013612790425777,-0.0035470947190399,0.0017702981406827,-0.250933125341517,-0.360332349089456,-0.0034409893841626,469.03091484801,33.8106678987287,1.41754181631313,0.0439651971730672,14.6499352935303,7.50793637061506,16.4242052094828,136.175086284624,4.07377507037218,13.8696720854139,1.41294486377435,-250.933125341517,-360.332349089456,-3.4409893841626,287.779724838701,100642.535322597,1.21831383675518,1.787510537510562e-05,29928511.229502138,,
3.67930746735704,-19.9580974501301,148.113630429538,0.0577289049699903,0,88.0,64.0,-0.0013623779648093,-0.0035499960307521,0.0017716278709368,-0.251119163666089,-0.360238368678097,-0.0035026353163025,469.036051431157,33.7991088816055,1.41804247479387,0.044594179073492,14.506558204354,7.39657069365805,16.247281453188,140.086607906649,4.07856769302039,13.8744925768214,1.41343626811615,-251.119163666089,-360.238368678097,-3.5026353163025,287.774765525383,100633.419998461,1.21822448618587,1.787486594483928e-05,29928743.255785648,,
3.7326307639854,-19.9580970222035,148.113631230211,0.0585034907264635,0,88.0,64.0,-0.0013614291122371,-0.003547565463983,0.0017702839449369,-0.251305406756641,-0.36014425449088,-0.0035643653380145,469.041344566015,33.7875498958269,1.4185439531841,0.0452243270291374,14.3669605646786,7.28812670686881,16.0750492375205,144.060382347586,4.08336701131873,13.8793197973182,1.41392836304371,-251.305406756641,-360.14425449088,-3.5643653380145,287.769730810025,100624.166767603,1.21813378224716,1.7874622872215976e-05,29928955.58747034,,
3.78595406061377,-19.9580965880508,148.113632042382,0.0592896909369156,0,88.0,64.0,-0.0013615026267565,-0.0035477968944861,0.0017702748245921,-0.251491853804832,-0.3600500070324,-0.0036261795985484,469.046794403729,33.7759909413927,1.41904625278815,0.0458556266537581,14.2309916940812,7.18249313922507,15.9073251391566,148.096593179117,4.08817303376455,13.8841537548012,1.41442114936858,-251.49185380483203,-360.0500070324,-3.6261795985483998,287.764620603352,100614.775496879,1.21804172356275,1.787437615283365e-05,29929148.2101048,,
3.83927735724213,-19.9580961476705,148.11363286605,0.0600875193746761,0,88.0,64.0,-0.0013626014837773,-0.003550698068566,0.0017716043943209,-0.251678504000727,-0.359955626811488,-0.0036880782474001,469.052401095268,33.7644320183029,1.41954937491161,0.0464880643706347,14.0985087320054,7.0795641683506,15.7439349755758,152.195424098543,4.09298576884802,13.8889944571709,1.41491462790266,-251.678504000727,-359.955626811488,-3.6880782474001,287.759434815894,100605.2460533,1.21794830875672,1.7874125782279315e-05,29929321.109249428,,
3.89260065387049,-19.9580957010608,148.113633701214,0.0608969898167998,0,88.0,64.0,-0.0013616496099356,-0.0035482596678375,0.0017702564495765,-0.251865359708532,-0.359861112118616,-0.0037500614270933,469.058164791067,33.7528731265577,1.42005332086029,0.0471216273620096,13.969376141881,6.9792390997051,15.5847132408668,156.357058927528,4.09780522504246,13.8938419123206,1.41540879945711,-251.86535970853203,-359.861112118616,-3.7500614270933,287.754173358158,100595.578304348,1.21785353645656,1.787387175613733e-05,29929474.270536467,,
3.94592395049886,-19.95809524822,148.113634547873,0.0617181160841137,0,88.0,64.0,-0.0013617200537075,-0.0035484831342433,0.0017702432456726,-0.252052420121883,-0.359766463459681,-0.0038121292875946,469.06408564157,33.7413142661569,1.4205580919418,0.0477563035222682,13.8434652521478,6.8814220674974,15.4295025816222,160.5816816099,4.10263141082111,13.8986961281526,1.41590366484401,-252.05242012188302,-359.766463459681,-3.8121292875946002,287.74883614037,100585.772117495,1.21775740528851,1.7873614069976942e-05,29929607.679575253,,
3.99924724712722,-19.9580947891465,148.113635406023,0.0625509119937196,0,88.0,64.0,-0.0013628189124475,-0.0035513843456019,0.0017715727453364,-0.252239684429595,-0.359671681347068,-0.0038742819791175,469.070163796583,33.7297554371006,1.42106368946366,0.0483920814144675,13.7206538310245,6.78602175568334,15.2781533096791,164.86947621071,4.10746433463861,13.9035571125591,1.41639922487441,-252.239684429595,-359.671681347068,-3.8742819791175,287.743423072779,100575.827360778,1.21765991388315,1.7873352719366996e-05,29929721.32206424,,
4.05257054375558,-19.9580943238385,148.113636275665,0.0633953913943842,0,88.0,64.0,-0.0013618700151373,-0.0035489537270317,0.0017702286145046,-0.25242715499222,-0.359576764069776,-0.0039365196449027,469.076399405753,33.7181966393887,1.42157011473467,0.0490289502300282,13.6008256922123,6.69295113754854,15.1305229487929,169.220626914075,4.11230400494591,13.9084248734367,1.41689548035975,-252.42715499222,-359.576764069776,-3.9365196449027002,287.737934065429,100565.743902372,1.21756106087127,1.7873087699864826e-05,29929815.18370764,,
4.10589384038394,-19.9580938522945,148.113637156796,0.0642515681516379,0,88.0,64.0,-0.0013629688251086,-0.0035518548317938,0.0017715580021556,-0.252614829948823,-0.359481712877378,-0.0039988424380155,469.082792618361,33.7066378730213,1.42207736906437,0.049666899751259,13.4838703289429,6.60212723249224,14.9864758125523,173.635318021732,4.11715043018474,13.9132994186796,1.41739243211127,-252.614829948823,-359.481712877378,-3.9988424380154997,287.732369028256,100555.521610776,1.21746084488559,1.7872819007021074e-05,29929889.250248645,,
4.15921713701231,-19.9580933745127,148.113638049414,0.0651194561496377,0,88.0,64.0,-0.0013620169034253,-0.0035494163585665,0.0017702098753463,-0.252802711662612,-0.359386526054267,-0.0040612505021532,469.089343583348,33.6950791379983,1.42258545376306,0.0503059203165232,13.3696825740744,6.51347087875471,14.845882611128,178.113733951362,4.1220036187889,13.918180756181,1.4178900809401,-252.80271166261198,-359.386526054267,-4.0612505021532,287.726727871077,100545.160354787,1.21735926456061,1.787254663637899e-05,29929943.507466286,,
4.21254043364067,-19.9580928904915,148.113638953518,0.065999069291167,0,88.0,64.0,-0.001362090322376,-0.0035496476238251,0.0017702004378071,-0.252990799327266,-0.359291204110665,-0.0041237439884439,469.096052449312,33.6835204343199,1.42309437014183,0.0509460027878243,13.2581622840799,6.42690652090289,14.7086200845822,182.656059234922,4.12686357918468,13.923068893833,1.41838842765719,-252.990799327266,-359.29120411066503,-4.123743988443899,287.721010503587,100534.660003505,1.21725631853259,1.787227058347442e-05,29929977.941174474,,
4.26586373026903,-19.9580924002294,148.113639869106,0.0668904214985669,0,88.0,64.0,-0.0013631861062854,-0.0035525408823445,0.0017715258061776,-0.253179092140995,-0.359195747556706,-0.0041863230482326,469.102919364517,33.6719617619859,1.42360411951256,0.0515871385206183,13.1492140450474,6.34236201101929,14.5745706607483,187.262478516944,4.13173031979171,13.9279638395265,1.41888747307345,-253.17909214099498,-359.195747556706,-4.1863230482326,287.715216835358,100524.020426323,1.21715200543947,1.7871990843835686e-05,29929992.537219457,,
4.3191870268974,-19.9580919037248,148.113640796177,0.0677935267211869,0,88.0,64.0,-0.0013622341244559,-0.0035501022818236,0.0017701775312883,-0.253367592463312,-0.359100154675214,-0.0042489878259065,469.109944476997,33.6604031209963,1.42411470318825,0.0522293193356831,13.0427468989062,6.25976842258866,14.4436221357762,191.933176552695,4.13660384902634,13.9328656011546,1.41938721799994,-253.36759246331198,-359.100154675214,-4.2489878259065,287.709346775783,100513.241492838,1.21704632391997,1.7871707412980864e-05,29929987.28146176,,
4.37251032352576,-19.9580914009759,148.113641734727,0.0687083989176899,0,88.0,64.0,-0.0013623105557212,-0.0035503414214887,0.0017701719585238,-0.253556299486611,-0.359004425979875,-0.0043117384732735,469.117127934307,33.6488445113513,1.42462612248227,0.0528725374928736,12.9386740883143,6.17905987618158,14.3156673756671,196.668338206825,4.14148417529484,13.9377741866055,1.41988766324721,-253.556299486611,-359.00442597987495,-4.3117384732735005,287.703400234199,100502.323073069,1.21693927261576,1.787142028642377e-05,29929962.159818716,,
4.42583362015412,-19.9580908919814,148.113642684757,0.0696350520728156,0,88.0,64.0,-0.001363409302541,-0.0035532424235818,0.0017715011272385,-0.253745212411024,-0.358908561982019,-0.0043745751423462,469.124469883754,33.6372859330506,1.42513837870905,0.053516785666636,12.8369128187296,6.10017337608786,14.1906040372063,201.468148451326,4.14637130700052,13.9426896037686,1.420388809626,-253.745212411024,-358.90856198201897,-4.374575142346201,287.697377119774,100491.265037252,1.21683085016944,1.7871129459668438e-05,29929917.158223763,,
4.47915691678249,-19.9580903767395,148.113643646262,0.0705735001889989,0,88.0,64.0,-0.0013624573170238,-0.0035508038434573,0.0017701527805011,-0.253934333598462,-0.358812560958553,-0.0044374979781749,469.131970472278,33.6257273860945,1.42565147318375,0.0541620569231288,12.7373840363548,6.02304865713027,14.0683343068787,206.332792363971,4.1512652525407,13.9476118605319,1.42089065794681,-253.93433359846202,-358.81256095855304,-4.4374979781749,287.69127734156,100480.067255949,1.21672105522554,1.7870834928211716e-05,29929852.26264612,,
4.53248021341085,-19.9580898552488,148.113644619243,0.0715237572854385,0,88.0,64.0,-0.0013625306705049,-0.003551034998759,0.0017701431232638,-0.254123662246342,-0.358716423422138,-0.0045005071332198,469.139629846438,33.6141688704828,1.42616540722217,0.0548083446988413,12.6400122207421,5.94762804094302,13.9487646564463,211.262455126612,4.15616602030651,13.9525409647811,1.42139320901994,-254.12366224634198,-358.716423422138,-4.5005071332197994,287.685100808502,100468.729600054,1.21660988643068,1.7870536687543683e-05,29929767.459093146,,
4.58580351003921,-19.9580893275076,148.113645603696,0.0724858374064788,0,88.0,64.0,-0.0013636263881889,-0.0035539281434293,0.0017714682718146,-0.254313197556607,-0.358620149885334,-0.0045636027601496,469.147448152525,33.6026103862156,1.42668018214113,0.055455642780597,12.5447251909396,5.87385630105274,13.8318056139674,216.257322023254,4.1610736186867,13.9574769244029,1.42189646365581,-254.31319755660698,-358.620149885334,-4.5636027601496005,287.678847429384,100457.251940699,1.21649734243259,1.7870234733145034e-05,29929662.733590554,,
4.63912680666757,-19.9580887935145,148.11364659962,0.0734597546141595,0,88.0,64.0,-0.001362674338115,-0.0035514894243977,0.0017701197759624,-0.254502941887433,-0.3585237386234,-0.0046267850046793,469.155425536457,33.5910519332929,1.42719579925814,0.0561039452868312,12.4514539241778,5.80168053615726,13.7173715491573,221.31757843847,4.16598805606472,13.9624197472823,1.42240042266461,-254.502941887433,-358.5237386234,-4.6267850046792995,287.672517112873,100445.634149346,1.21638342188098,1.7869929060489177e-05,29929538.072199453,,
4.69245010329594,-19.958088253268,148.113647607013,0.0744455229835585,0,88.0,64.0,-0.0013627507005179,-0.0035517284430868,0.0017701139832977,-0.254692894434937,-0.358427190152428,-0.0046900540199248,469.163562143715,33.5794935117146,1.42771225989123,0.0567532466500521,12.3601323861626,5.73105005103806,13.6053804720676,226.443409855715,4.17090934081718,13.9673694413005,1.42290508685617,-254.692894434937,-358.427190152428,-4.6900540199247995,287.666109767555,100433.87609784,1.2162681234281,1.786961966504401e-05,29929393.46102696,,
4.7457733999243,-19.9580877067666,148.113648625872,0.0754431566232815,0,88.0,64.0,-0.0013638493773211,-0.0035546293202052,0.0017714429312019,-0.254883054402968,-0.358330504986128,-0.0047534099591997,469.171858119618,33.5679351214808,1.42822956535975,0.0574035416004233,12.2706973721191,5.66191624458466,13.4957538441327,231.635001855141,4.17583748132228,13.972326014343,1.42341045704075,-254.88305440296799,-358.330504986128,-4.7534099591997,287.659625301797,100421.977658168,1.21615144572638,1.7869306542265206e-05,29929228.886178654,,
4.79909669655266,-19.9580871540087,148.113649656196,0.0764526696503163,0,88.0,64.0,-0.0013628973100593,-0.0035521905859655,0.0017700943508657,-0.255073424152063,-0.358233681393752,-0.0048168529688596,469.180313608981,33.5563767625914,1.42874771698334,0.0580548251503333,12.1830883578124,5.59423250445416,13.3884164007283,236.892540112329,4.18077248594986,13.9772894742897,1.42391653402802,-255.073424152063,-358.233681393752,-4.8168529688596005,287.653063623915,100409.938702764,1.21603338743136,1.7868989687604353e-05,29929044.333816536,,
4.85241999318103,-19.9580865949929,148.113650697982,0.0774740762067959,0,88.0,64.0,-0.0013639929670196,-0.0035550836185889,0.0017714193148717,-0.255264001833909,-0.358136720638281,-0.004880383205036,469.188928756337,33.5448184350465,1.42926671608265,0.0587070925799437,12.0972473598216,5.52795410791666,13.2832959844345,242.216210396136,4.18571436306837,13.9822598290215,1.42442331862776,-255.26400183390902,-358.136720638281,-4.880383205036,287.646424642059,100397.759104307,1.21591394719977,1.786866909650337e-05,29928839.79012114,,
4.90574328980939,-19.9580860297177,148.113651751229,0.0785073904497549,0,88.0,64.0,-0.0013630438697272,-0.0035526526339832,0.0017700745706053,-0.255454789802419,-0.358039620990771,-0.0049440008145251,469.197703705802,33.5332601388461,1.42978656397885,0.0593603394236021,12.0131188044114,5.46303812847806,13.1803233882712,247.606198567134,4.19066312104087,13.9872370864161,1.4249308116494,-255.454789802419,-358.039620990771,-4.9440008145251,287.639708264286,100385.438735846,1.21579312369072,1.7868344764398056e-05,29928615.24131378,,
4.95906658643775,-19.9580854581817,148.113652815934,0.0795526265623048,0,88.0,64.0,-0.0013631141308025,-0.0035528758122087,0.0017700607094633,-0.255645787266083,-0.35794238296264,-0.0050077059514804,469.206638601218,33.5217018739901,1.43030726199416,0.0600145614570825,11.9306494043932,5.39944334789874,13.0794322082243,253.062690575479,4.19561876822974,13.9922212543525,1.42543901390252,-255.645787266083,-357.94238296264,-5.0077059514804,287.632914398484,100372.97747067,1.2156709155644,1.7868016686714374e-05,29928370.67363087,,
5.01238988306611,-19.9580848803835,148.113653892095,0.0806097987452522,0,88.0,64.0,-0.0013642157772905,-0.0035557844688871,0.0017713934341159,-0.255836993422518,-0.357845007076178,-0.0050714987702906,469.215733586042,33.5101436404786,1.43082881145144,0.0606697546855909,11.8497880434112,5.33713017324646,12.9805587044255,258.585872459364,4.20058131299339,13.9972123407076,1.42594792619647,-255.836993422518,-357.845007076178,-5.0714987702906,287.626042952426,100360.375182408,1.21554732148313,1.786768485887108e-05,29928106.073344544,,
5.06571317969448,-19.9580842963215,148.11365497971,0.0816789212180301,0,88.0,64.0,-0.0013632636457854,-0.003553345610481,0.0017700446688925,-0.256028410634178,-0.357747491591957,-0.0051353794183632,469.224988803352,33.4985854383116,1.43135121367423,0.0613259153324698,11.7704856671545,5.27606055867248,12.8836416704248,264.175930343074,4.20555076368679,14.0022103533566,1.42645754934041,-256.02841063417804,-357.747491591957,-5.1353794183631996,287.619093833766,100347.63174502,1.21542234011118,1.7867349276279513e-05,29927821.42675861,,
5.11903647632284,-19.9580837059945,148.113656078776,0.0827600082177669,0,88.0,64.0,-0.0013633368612937,-0.0035535765084253,0.0017700346071934,-0.256220038105249,-0.357649837026929,-0.0051993480504897,469.234404395837,33.4870272674891,1.43187446998675,0.0619830398285756,11.6926951809977,5.21619793158685,12.7886223099915,269.83305043519,4.21052712866123,14.0072153001724,1.4269678841433,-256.220038105249,-357.649837026929,-5.1993480504897,287.612066950043,100334.747032813,1.21529597011497,1.7867009934343797e-05,29927516.720212188,,
5.1723597729512,-19.9580831094009,148.113657189291,0.0838530740067363,0,88.0,64.0,-0.0013644324283118,-0.0035564693612032,0.0017713593358723,-0.256411875044459,-0.357552043897921,-0.0052634048216586,469.243980505895,33.475469128011,1.43239858171416,0.0626411248022816,11.6163713536589,5.15750712296655,12.6954441209754,275.557419026566,4.2155104162674,14.0122271890288,1.42747893141415,-256.411875044459,-357.552043897921,-5.2634048216586,287.604962208633,100321.720920349,1.21516821016216,1.7866666828458497e-05,29927191.940061275,,
5.22568306957957,-19.9580825065395,148.113658311253,0.0849581328677014,0,88.0,64.0,-0.0013634802457289,-0.0035540303961759,0.0017700104467897,-0.256603923807343,-0.35745411046601,-0.005327549879916,469.253717275562,33.4639110198773,1.43292355018237,0.0633001670700396,11.5414707264405,5.09995430152242,12.6040527857354,281.349222488511,4.22050063485368,14.0172460277986,1.42799069196187,-256.603923807343,-357.45411046601,-5.327549879916,287.597779516783,100308.553282506,1.21503905892226,1.786631995401025e-05,29926847.072690316,,
5.27900636620793,-19.9580818974088,148.11365944466,0.086075199091807,0,88.0,64.0,-0.0013635564635281,-0.0035542691365431,0.0017700042481296,-0.2567961835968,-0.357356037251548,-0.0053917833806764,469.263614846355,33.4523529430882,1.43344937671754,0.063960163627485,11.4679515277106,5.0435069114917,12.5143960677436,287.208647271284,4.22549779276124,14.0222718243485,1.42850316659475,-256.7961835968,-357.356037251548,-5.3917833806764,287.590518781683,100295.243994623,1.214908515068,1.7865969306381273e-05,29926482.104539957,,
5.33232966283629,-19.9580812820075,148.113660589508,0.0872042870083824,0,88.0,64.0,-0.0013646550125053,-0.0035571697797488,0.0017713328146751,-0.256988653623427,-0.357257824772496,-0.0054561054795417,469.273673359666,33.4407948976435,1.43397606264732,0.0646211116410661,11.3957735922484,4.9881336138174,12.4264237139329,293.135879901338,4.23050189833628,14.027304586551,1.42901635612168,-256.988653623427,-357.257824772496,-5.4561054795417,287.583179910277,100281.792932147,1.21477657727191,1.786561488094019e-05,29926097.022037495,,
5.33232966283629,-19.9580812824456,148.113660589444,0.0875612679431215,0,88.0,64.0,-0.0013646550130135,-0.0035571697795859,0.0017713328146133,-0.256988591333397,-0.357257862379739,-0.0054560806681771,469.278500779758,33.4407949016978,1.43399097527931,0.0646211338077369,11.3957572901541,4.98812398284419,12.4264049870891,293.123650470143,4.23064718371746,14.0274491779321,1.42903124650334,-256.98859133339704,-357.257862379739,-5.4560806681770995,287.580859597994,100277.540447922,1.21473486511572,1.7865502822246936e-05,29925256.722669065,,
5.38565295946466,-19.958080660773,148.113661745719,0.0887023879978806,0,88.0,64.0,-0.0013637026942102,-0.0035547304806844,0.0017699837027075,-0.257181280267215,-0.357159505117992,-0.0055204940217998,469.288719792238,33.4292368875976,1.43451852530877,0.0652830556598804,11.3248780189865,4.9337928433464,12.3400643164553,299.118854747656,4.23565827993532,14.0324889465945,1.42954515515116,-257.18128026721496,-357.159505117992,-5.5204940217997995,287.573442523304,100263.9480014,1.2146015360259,1.7865144614231532e-05,29924851.554850224,,
5.43897625609302,-19.958080032827,148.113662913431,0.0898555588526651,0,88.0,64.0,-0.0013637758442193,-0.003554961259111,0.0017699734433413,-0.257374181005467,-0.357061007365143,-0.0055849962787057,469.299100028609,33.4176789048418,1.43504693739197,0.0659459238062254,11.2552643317618,4.88047662271851,12.2553132400038,305.182242054173,4.2406763404828,14.0375356966273,1.43005978030835,-257.374181005467,-357.06100736514304,-5.5849962787057,287.565947123291,100250.213532422,1.21446681033652,1.7864782618981174e-05,29924426.245605636,,
5.49229955272138,-19.9580793986064,148.113664092578,0.0910207948889583,0,88.0,64.0,-0.0013648713056195,-0.0035578538890544,0.0017712979246813,-0.25756729276061,-0.35696236964028,-0.0056495875951028,469.309641629033,33.4061209534305,1.43557621285836,0.0666097358793296,11.1868804375941,4.82814730681714,12.1721069154938,311.313999134545,4.24570137369605,14.0425894358956,1.430575122783,-257.56729276061003,-356.96236964028,-5.649587595102799,287.558373304563,100236.336917521,1.21433068672687,1.7864416831843107e-05,29923980.781469043,,
5.54562284934974,-19.9580787581098,148.113665283157,0.0921981105078012,0,88.0,64.0,-0.0013639190560269,-0.0035554147987974,0.0017699488390326,-0.257760617886636,-0.356863590196644,-0.0057142681202646,469.320344733288,33.3945630333637,1.43610635303805,0.0672744896534469,11.1196918724039,4.77677789302334,12.0904021445083,317.514312802612,4.25073338790893,14.0476501722627,1.43109118338306,-257.760617886636,-356.863590196644,-5.7142681202646,287.550720973602,100222.318033565,1.21419316387828,1.7864047248156753e-05,29923515.149005022,,
5.59894614597811,-19.9580781113359,148.113666485166,0.0933875201307237,0,88.0,64.0,-0.0013650205457683,-0.0035583231405267,0.001771281156515,-0.257954154541701,-0.356764670314906,-0.0057790380131973,469.331209480779,33.3830051446413,1.43663735926191,0.0679401830382069,11.0536654382955,4.72634234549528,12.0101572985829,323.783369939186,4.25577239145349,14.0527179135906,1.43160796291631,-257.95415454170103,-356.76467031490597,-5.7790380131973,287.542990036759,100208.156757752,1.21405424047398,1.786367386325349e-05,29923029.334805585,,
5.65226944260647,-19.9580774582835,148.113667698602,0.0945890381960198,0,88.0,64.0,-0.0013640682553941,-0.003555883959982,0.0017699319835945,-0.258147905085496,-0.356665608241189,-0.0058438974235634,469.342236010488,33.3714472872634,1.43716923286132,0.0686068140726377,10.9887691462148,4.67681555275035,11.9313322492508,330.121357490228,4.26081839265844,14.0577926677384,1.43212546219027,-258.147905085496,-356.665608241189,-5.8438974235634005,287.535180400276,100193.852967653,1.21391391519962,1.7863296672457686e-05,29922523.325500626,,
5.70559273923483,-19.9580767989513,148.113668923463,0.0958026791634038,0,88.0,64.0,-0.0013641413091569,-0.0035561145279176,0.0017699215131348,-0.258341868728968,-0.356566404496649,-0.0059088465083781,469.35342446103,33.35988946123,1.43770197516844,0.0692743809195072,10.9249721616838,4.6281732874351,11.8538883017638,336.528462464701,4.26587139985117,14.0628744425644,1.43264368201233,-258.34186872896805,-356.566404496649,-5.9088465083781,287.527291970257,100179.406541161,1.21377218674264,1.78629156710853e-05,29921997.107744697,,
5.75891603586319,-19.958076133338,148.113670159745,0.0970284575168043,0,88.0,64.0,-0.0013652367128464,-0.0035590070467464,0.0017712458342339,-0.258536044687614,-0.356467059602311,-0.0059738854248452,469.364774970693,33.348331666541,1.43823558751627,0.0699428818599673,10.8622447534159,4.58039216815574,11.7777881322656,343.004871932499,4.27093142135887,14.0679632459267,1.4331626231899,-258.536044687614,-356.467059602311,-5.9738854248452,287.519324652648,100164.817356457,1.21362905379205,1.7862530854442916e-05,29921450.66821254,,
5.81223933249156,-19.9580754614423,148.113671407447,0.0982663877531886,0,88.0,64.0,-0.0013642873896034,-0.0035565756138865,0.0017699004854575,-0.258730435311099,-0.356367571807023,-0.006039014323248,469.376287677284,33.3367739031965,1.43877007123821,0.0706123152884646,10.8005582446428,4.53344962324734,11.7029957282138,349.550773022793,4.275998465504,14.0730590856792,1.43368228652992,-258.73043531109903,-356.367571807023,-6.039014323248,287.511278353315,100150.085292149,1.21348451503971,1.786214221783149e-05,29920883.993624263,,
